lat	lng	name
-23.5505	-46.6333	SaÌƒo Paulo
-33.8688	151.2093	Sydney
34.05220	-118.2437	Los Angeles
25.761681	-80.191788	Miami
32.776665	-96.796989	Dallas
51.507351	-0.127758	London
-31.950527	115.860458	Perth
37.983810	23.727539	Athens
