- lat: 34.217777777777776
  lng: -99.3963888888889
  minel: 0
  name: Vernon
  pop: Dallas
- lat: 21.6730556
  lng: -158.0480556
  minel: 0
  name: Sunset Beach
  pop: Los Angeles
- lat: -12.27694
  lng: -76.866386
  minel: 0
  name: Lurin
  pop: Miami
- lat: -22.883141
  lng: -47.210918
  minel: 0
  name: Hortolândia
  pop: São Paulo
- lat: 38.802914
  lng: -9.38165
  minel: 0
  name: Sintra
  pop: London
- lat: 37.82077
  lng: 22.662741
  minel: 0
  name: Nemea
  pop: Athens
- lat: 24.860735
  lng: 67.001137
  minel: 0
  name: Karachi
  pop: London
- lat: -31.950527
  lng: 115.860458
  minel: 0
  name: Perth
  pop: Perth
- lat: -32.231503
  lng: 148.632965
  minel: 0
  name: Dubbo
  pop: Sydney
