- lat: 49.853959
  lng: -97.2923068
  minel: 20
  name: Winnipeg
- lat: 63.7467
  lng: -68.517
  minel: 20
  name: Iqaluit
- lat: 34.0522
  lng: -118.2437
  minel: 20
  name: Los Angeles
- lat: 19.076
  lng: 72.8777
  minel: 20
  name: Mumbai
- lat: 55.7558
  lng: 37.6173
  minel: 20
  name: Moscow
